City_ID,City,Lat,Lng,Max Temp,Humidity,Cloudiness,Wind Speed,Country,Date
0,sinop,41.7711,34.8709,1.24,61,46,5.02,TR,1701066063
1,grytviken,-54.2811,-36.5092,0.99,88,61,5.85,GS,1701066619
2,palmer,42.1584,-72.3287,11.59,82,100,2.06,US,1701066619
3,ancud,-41.8697,-73.8203,9.29,85,100,1.59,CL,1701066619
4,stanley,54.868,-1.6985,3.62,96,40,2.57,GB,1701066619
5,carlsbad,33.1581,-117.3506,17.68,37,0,2.24,US,1701066619
6,tiksi,71.6872,128.8694,-21.24,100,93,2.86,RU,1701066620
7,margaret river,-33.95,115.0667,21.38,65,88,5.99,AU,1701066620
8,ishigaki,24.3448,124.1572,26.07,65,75,6.69,JP,1701066620
9,ha'il,27.5219,41.6907,19.01,52,0,1.03,SA,1701066388
10,port-aux-francais,-49.35,70.2167,4.19,79,96,7.67,TF,1701066620
11,waitangi,-43.9535,-176.5597,13.23,91,100,0.45,NZ,1701066620
12,oltinko'l,40.8011,72.1634,17.03,20,77,0.68,UZ,1701066620
13,nova sintra,14.8667,-24.7167,22.43,63,53,5.19,CV,1701066620
14,iqaluit,63.7506,-68.5145,-7.15,73,75,5.66,CA,1701066380
15,brookings,44.3114,-96.7984,-9.95,84,0,3.09,US,1701066621
16,carroll,39.5501,-77.0164,4.24,92,0,2.57,US,1701066621
17,bethel,41.3712,-73.414,12.33,84,100,6.17,US,1701066621
18,edinburgh of the seven seas,-37.0676,-12.3116,13.1,68,17,9.77,SH,1701066621
19,paraparaumu,-40.9167,175.0167,15.7,84,100,4.8,NZ,1701066621
20,ushuaia,-54.8,-68.3,4.81,75,0,2.57,AR,1701066621
21,zaragoza,41.6561,-0.8773,12.49,76,0,1.03,ES,1701066200
22,blackmans bay,-43.0167,147.3167,13.07,72,61,0.45,AU,1701066622
23,albany,42.6001,-73.9662,4.8,94,100,0.89,US,1701066519
24,sumbawa besar,-8.5,117.4333,31.11,57,100,3.29,ID,1701066622
25,bredasdorp,-34.5322,20.0403,23.74,38,6,1.26,ZA,1701066622
26,boysun,38.2061,67.1986,17.68,17,100,0.44,UZ,1701066622
27,broome,42.2506,-75.833,4.82,89,75,2.06,US,1701066622
28,invercargill,-46.4,168.35,12.79,92,100,0.89,NZ,1701066622
29,kodiak,57.79,-152.4072,3.73,100,100,0.0,US,1701066622
30,west island,-12.1568,96.8225,28.99,61,100,5.66,CC,1701066623
31,nanyang,32.9947,112.5328,18.34,24,5,2.24,CN,1701066623
32,isafjordur,66.0755,-23.124,4.78,89,100,5.02,IS,1701066623
33,lebedyn,50.5852,34.4849,-3.18,94,100,9.62,UA,1701066623
34,sucre,-19.0333,-65.2627,12.1,88,100,2.22,BO,1701066623
35,port alfred,-33.5906,26.891,22.88,86,4,1.79,ZA,1701066623
36,wailua homesteads,22.0669,-159.378,23.24,91,100,3.6,US,1701066623
37,aldama,22.9167,-98.0667,21.39,80,99,5.42,MX,1701066623
38,bela,25.9333,81.9833,24.4,32,100,4.08,IN,1701066624
39,adamstown,-25.066,-130.1015,21.83,85,100,7.59,PN,1701066624
40,tazovsky,67.4667,78.7,-17.45,97,93,4.01,RU,1701066521
41,moultonborough,43.7548,-71.3967,4.9,86,100,2.24,US,1701066624
42,neiafu,-18.65,-173.9833,28.38,78,20,1.03,TO,1701066624
43,mugia,43.1041,-9.2179,14.95,93,100,3.29,ES,1701066416
44,hermanus,-34.4187,19.2345,19.31,66,18,1.01,ZA,1701066508
45,port augusta,-32.5,137.7667,31.7,24,92,5.21,AU,1701066624
46,port mathurin,-19.6833,63.4167,24.95,68,0,6.46,MU,1701066625
47,vadso,70.0744,29.7487,-8.91,86,20,1.54,NO,1701066435
48,puerto ayora,-0.7393,-90.3518,24.75,92,86,1.79,EC,1701066625
49,island harbour,50.724,-1.2758,10.52,93,100,2.24,GB,1701066625
50,kavaratti,10.5669,72.642,28.74,70,43,2.72,IN,1701066625
51,jamestown,42.097,-79.2353,4.77,96,100,6.71,US,1701066625
52,hamilton,39.1834,-84.5333,1.24,77,100,8.23,US,1701066625
53,utrik,11.2278,169.8474,27.64,78,100,9.27,MH,1701066625
54,enewetak,11.3474,162.3373,27.99,81,10,9.96,MH,1701066626
55,tolanaro,-25.0319,46.9987,30.04,66,20,6.17,MG,1701066416
56,lihue,21.9789,-159.3672,23.58,89,100,3.6,US,1701066626
57,saint-francois,46.4154,3.9054,1.47,94,0,3.09,FR,1701066626
58,millau,44.0833,2.9167,1.07,48,94,0.97,FR,1701066605
59,revda,56.801,59.9303,0.07,75,83,4.29,RU,1701066601
60,lompoc,34.6391,-120.4579,13.29,69,0,3.09,US,1701066626
61,saint-philippe,-21.3585,55.7679,27.77,69,8,3.95,RE,1701066626
62,winnipeg,49.8844,-97.147,-13.01,73,17,2.06,CA,1701066627
63,yellowknife,62.456,-114.3525,-12.71,92,100,0.0,CA,1701066627
64,zarechnyy,53.2036,45.1923,0.41,99,100,4.92,RU,1701066627
65,saldanha,-33.0117,17.9442,21.03,74,6,6.54,ZA,1701066627
66,lazaro cardenas,17.9583,-102.2,25.13,77,100,1.43,MX,1701066627
67,ribeira grande,38.5167,-28.7,17.65,94,80,2.24,PT,1701066627
68,fisterra,42.9049,-9.2629,14.86,93,100,3.25,ES,1701066627
69,camocim,-2.9022,-40.8411,25.04,77,80,4.58,BR,1701066628
70,papatowai,-46.5619,169.4708,10.66,94,100,3.76,NZ,1701066628
71,georgetown,5.4112,100.3354,30.96,79,40,3.6,MY,1701066510
72,buchanan,5.8808,-10.0467,25.07,88,17,1.52,LR,1701066628
73,bilibino,68.0546,166.4372,-13.1,97,39,2.28,RU,1701066628
74,talnakh,69.4865,88.3972,-23.67,98,34,3.25,RU,1701066628
75,bandar-e genaveh,29.5791,50.517,24.01,60,0,3.56,IR,1701066629
76,lozuvatka,48.0571,33.2858,-3.5,85,100,10.65,UA,1701066338
77,qarauyl,48.9451,79.255,2.72,53,100,3.12,KZ,1701066629
78,new norfolk,-42.7826,147.0587,13.73,58,93,2.27,AU,1701066629
79,tangalle,6.024,80.7911,31.09,70,43,5.05,LK,1701066629
80,huarmey,-10.0681,-78.1522,19.77,85,96,4.06,PE,1701066629
81,taoudenni,22.6783,-3.9836,15.68,25,0,3.89,ML,1701066629
82,smithers,54.7804,-127.1743,-0.82,86,100,2.06,CA,1701066629
83,peterhead,57.5058,-1.7981,4.69,77,100,10.08,GB,1701066630
84,amahai,-3.3333,128.9167,27.85,80,100,1.99,ID,1701066630
85,luderitz,-26.6481,15.1594,28.04,39,0,6.9,NA,1701066630
86,ilulissat,69.2167,-51.1,-1.99,100,100,0.0,GL,1701066630
87,placer,39.0666,-120.7677,4.9,71,0,3.39,US,1701066630
88,puerto natales,-51.7236,-72.4875,1.8,92,98,1.73,CL,1701066630
89,constantia,44.1833,28.65,-3.5,86,89,8.01,RO,1701066519
90,ad dilam,23.9915,47.1627,28.23,27,11,3.13,SA,1701066631
91,san antonio de pale,-1.4014,5.6325,26.28,82,100,1.46,GQ,1701066631
92,homer,59.6425,-151.5483,4.93,93,100,2.68,US,1701066631
93,nar'yan-mar,67.6713,53.087,-23.71,100,47,2.42,RU,1701066631
94,saipan,15.1355,145.701,29.39,70,40,9.26,MP,1701066631
95,viedma,-40.8135,-62.9967,13.21,54,100,7.78,AR,1701066526
96,vorgashor,67.5833,63.95,-21.51,100,29,2.1,RU,1701066631
97,nemuro,43.3236,145.575,3.5,59,88,3.04,JP,1701066632
98,selebi-phikwe,-21.979,27.8498,30.75,25,0,5.48,BW,1701066632
99,susuman,62.7833,148.1667,-20.9,99,100,1.72,RU,1701066632
100,kusatsu,35.0167,135.9667,13.38,74,98,1.64,JP,1701066632
101,afaahiti,-17.75,-149.2833,24.93,81,100,9.44,PF,1701066632
102,newnham,-41.3833,147.1333,16.53,55,100,1.54,AU,1701066632
103,fale old settlement,-9.3852,-171.2468,29.85,77,78,7.67,TK,1701066632
104,alo,7.4178,6.7371,25.58,82,66,0.27,NG,1701066633
105,boerne,29.7947,-98.732,8.5,65,100,2.06,US,1701066633
106,sola,-13.8833,167.55,28.37,84,100,0.0,VU,1701066633
107,yantarnyy,54.8717,19.9381,-9.08,75,81,0.65,RU,1701066633
108,bardai,11.65,7.2333,23.55,69,41,3.05,NG,1701066633
109,dryden,49.7833,-92.7503,-15.84,78,40,4.12,CA,1701066633
110,natal,-5.795,-35.2094,25.36,83,75,4.63,BR,1701066215
111,flin flon,54.7682,-101.865,-18.91,97,23,1.92,CA,1701066634
112,dabhol,17.6,73.1667,30.2,53,0,2.38,IN,1701066634
113,qaqortoq,60.7167,-46.0333,-10.63,88,25,3.48,GL,1701066634
114,longyearbyen,78.2186,15.6401,2.91,75,75,8.75,SJ,1701066634
115,coari,-4.085,-63.1414,22.62,96,100,0.29,BR,1701066634
116,ladispoli,41.9537,12.0735,10.03,68,99,3.51,IT,1701066595
117,cikarang,-6.2611,107.1528,33.45,62,96,2.95,ID,1701066634
118,port elizabeth,-33.918,25.5701,22.95,76,20,9.77,ZA,1701066354
119,pisco,-13.7,-76.2167,19.03,82,0,5.14,PE,1701066634
120,aljezur,37.3191,-8.8033,12.89,84,38,1.1,PT,1701066635
121,dazuocun,24.8862,118.9643,19.94,76,0,6.67,CN,1701066635
122,namie,37.4833,141.0,17.53,77,0,0.4,JP,1701066635
123,fort bragg,35.139,-79.006,8.91,93,100,5.14,US,1701066635
124,pandan,14.0453,124.1694,28.64,75,85,3.71,PH,1701066635
125,pathein,16.7833,94.7333,29.96,56,99,5.38,MM,1701066635
126,fortuna,40.5982,-124.1573,4.08,100,0,5.66,US,1701066635
127,tual,-5.6667,132.75,28.13,74,37,2.57,ID,1701066636
128,sydney,-33.8679,151.2073,25.73,74,75,7.2,AU,1701066137
129,katsuura,35.1333,140.3,17.01,65,36,6.37,JP,1701066636
130,ola,59.5833,151.2833,-17.48,75,97,5.55,RU,1701066636
131,muravlenko,63.7898,74.523,-13.03,94,100,2.63,RU,1701066636
132,nakonde,-9.3421,32.745,23.28,59,100,0.77,ZM,1701066636
133,al bardiyah,31.7561,25.0865,16.76,46,93,7.48,LY,1701066636
134,todos santos,23.45,-110.2167,22.47,75,98,1.96,MX,1701066637
135,bantogon,6.5333,124.0333,28.14,76,15,1.04,PH,1701066637
136,mersa matruh,31.3525,27.2453,17.59,55,88,9.18,EG,1701066637
137,uturoa,-16.7333,-151.4333,26.15,80,30,9.45,PF,1701066637
138,carauari,-4.8828,-66.8958,22.37,83,99,0.86,BR,1701066637
139,uzgen,40.7699,73.3007,17.68,18,13,1.39,KG,1701066637
140,bubaque,11.2833,-15.8333,26.63,67,0,2.95,GW,1701066637
141,dudinka,69.4058,86.1778,-27.32,100,42,2.86,RU,1701066638
142,washington,47.5001,-120.5015,0.54,79,87,1.01,US,1701066477
143,port saint john's,-31.6229,29.5448,27.3,73,0,1.9,ZA,1701066638
144,sao felix do xingu,-6.6447,-51.995,21.39,97,85,0.76,BR,1701066638
145,vilyuchinsk,52.9306,158.4028,-5.04,78,28,4.39,RU,1701066638
146,port isabel,26.0734,-97.2086,15.02,66,100,6.17,US,1701066618
147,nuuk,64.1835,-51.7216,-0.66,74,100,7.2,GL,1701066432
148,alice springs,-23.7,133.8833,33.75,20,1,3.6,AU,1701066638
149,fort st. john,56.2499,-120.8529,-1.06,80,75,4.12,CA,1701066638
150,taltal,-25.4,-70.4833,15.71,85,47,0.35,CL,1701066639
151,lebu,-37.6167,-73.65,11.88,95,1,2.54,CL,1701066639
152,corinto,37.9407,22.9573,9.5,51,78,3.41,GR,1701066639
153,jawf al maqbabah,13.8378,45.8349,26.32,34,67,2.26,YE,1701066639
154,buala,-8.145,159.5921,27.73,82,100,1.68,SB,1701066640
155,naze,28.3667,129.4833,20.51,72,83,5.13,JP,1701066640
156,khandyga,62.6667,135.6,-33.13,98,94,0.71,RU,1701066640
157,bol,13.4586,14.7147,26.33,40,6,7.72,TD,1701066640
158,essaouira,31.5125,-9.77,9.72,66,78,1.54,MA,1701066394
159,yunguyo,-16.25,-69.0833,6.96,81,100,1.31,PE,1701066640
160,saudarkrokur,65.7461,-19.6394,2.45,88,100,4.99,IS,1701066641
161,valparaiso,-33.0393,-71.6273,13.8,94,100,2.06,CL,1701066602
162,nguigmi,14.2495,13.1092,26.89,25,15,6.11,NE,1701066641
163,anadyr,64.75,177.4833,2.28,87,75,14.0,RU,1701066641
164,katsuren-haebaru,26.3369,127.8719,24.21,75,75,6.17,JP,1701066641
165,san pedro pochutla,15.7333,-96.4667,23.48,86,97,1.38,MX,1701066641
166,lae,-6.7221,146.9847,32.37,74,41,3.72,PG,1701066642
167,wynyard,-41.0,145.7167,12.67,78,100,0.99,AU,1701066642
168,palu,-0.8917,119.8707,27.66,92,91,1.73,ID,1701066642
169,wewak,-3.5534,143.6268,28.68,75,99,2.79,PG,1701066642
170,dili,-8.5586,125.5736,29.1,73,100,1.84,TL,1701066642
171,itaparica,-12.8883,-38.6786,24.96,74,58,1.52,BR,1701066642
172,tsarevo,42.1667,27.85,2.33,63,2,7.08,BG,1701066642
173,badger,64.8,-147.5333,-5.36,89,100,2.06,US,1701066643
174,sandur,15.1,76.55,29.03,51,29,5.63,IN,1701066643
175,vigan,17.5747,120.3869,30.52,76,22,2.78,PH,1701066643
176,rawson,-43.3002,-65.1023,12.82,59,100,7.52,AR,1701066643
177,victoria point,-27.5833,153.3,27.17,73,100,1.79,AU,1701066643
178,cidreira,-30.1811,-50.2056,20.09,92,100,6.22,BR,1701066643
179,dzuunmod,48.2199,97.3744,-5.67,83,21,2.84,MN,1701066643
180,akropong,5.9746,-0.0854,21.53,92,100,1.18,GH,1701066644
181,kalmunai,7.4167,81.8167,28.18,79,96,4.34,LK,1701066644
182,chibougamau,49.9168,-74.3659,-3.21,93,100,4.63,CA,1701066644
183,gonda city,27.1333,81.9333,24.02,44,100,2.69,IN,1701066644
184,tuttle,35.2909,-97.8123,-0.34,90,8,2.81,US,1701066644
185,olonkinbyen,70.9221,-8.7187,1.47,87,100,8.43,SJ,1701066529
186,guerrero negro,27.9769,-114.0611,18.28,56,100,1.07,MX,1701066644
187,tanjung pandan,-2.75,107.65,26.4,85,100,2.74,ID,1701066645
188,atherton,53.5237,-2.4935,7.42,97,100,3.02,GB,1701066645
189,petropavlovsk-kamchatsky,53.0452,158.6483,-5.86,63,20,7.15,RU,1701066645
190,colac,-38.3333,143.5833,16.76,54,21,3.9,AU,1701066645
191,parauapebas,-6.0675,-49.9022,22.12,98,95,1.21,BR,1701066645
192,twentynine palms,34.1356,-116.0542,11.09,36,100,1.79,US,1701066646
193,crane,31.3974,-102.3501,5.84,38,79,3.62,US,1701066646
194,north bend,43.4065,-124.2243,4.92,87,0,3.6,US,1701066646
195,seguela,7.9611,-6.6731,22.02,93,64,1.96,CI,1701066646
196,tofol,5.3248,163.0078,28.88,79,75,8.23,FM,1701066646
197,fabens,31.5023,-106.1586,8.65,52,20,5.29,US,1701066646
198,usogorsk,63.4106,48.6872,-12.41,95,100,3.15,RU,1701066646
199,fortaleza,-3.7227,-38.5247,28.93,72,40,4.12,BR,1701066647
200,klyuchi,52.2667,79.1667,2.39,80,100,4.99,RU,1701066647
201,thabazimbi,-24.5917,27.4116,30.11,26,0,2.12,ZA,1701066647
202,tchibanga,-2.85,11.0333,22.61,98,100,0.62,GA,1701066647
203,sos'va,59.1766,61.8558,-1.64,97,100,3.58,RU,1701066503
204,irymple,-34.25,142.1667,28.94,36,100,1.7,AU,1701066647
205,arawa,-6.2132,155.5367,27.44,88,82,1.39,PG,1701066647
206,luwuk,-0.9516,122.7875,29.01,78,56,0.77,ID,1701066648
207,novyy urgal,51.0736,132.5642,-17.84,88,7,1.12,RU,1701066648
208,olinda,-8.0089,-34.8553,26.85,78,75,5.66,BR,1701066649
209,guelph,43.5501,-80.2497,1.88,93,100,6.17,CA,1701066649
210,darwin,-12.4611,130.8418,32.99,55,75,4.63,AU,1701066466
211,markaz-e hukumat-e darweshan,31.1323,64.1934,20.9,31,5,0.9,AF,1701066649
212,hawaiian paradise park,19.5933,-154.9731,22.73,93,75,2.06,US,1701066649
213,thompson,55.7435,-97.8558,-16.91,71,100,2.57,CA,1701066649
214,whitehorse,60.7161,-135.0538,2.79,87,100,5.14,CA,1701066490
215,forest grove,45.5198,-123.1107,6.35,79,0,1.54,US,1701066584
216,puerto baquerizo moreno,-0.9,-89.6,24.0,79,94,4.01,EC,1701066649
217,labrador city,52.9463,-66.9114,-15.05,92,75,0.0,CA,1701066649
218,praia da vitoria,38.7333,-27.0667,17.64,100,20,6.24,PT,1701066650
219,murun-kuren,49.6342,100.1625,-8.29,75,100,1.34,MN,1701066650
220,kish,26.5578,54.0194,27.15,65,6,0.0,IR,1701066650
221,port lincoln,-34.7333,135.8667,17.19,73,81,9.76,AU,1701066650
222,nikol'sk,53.7189,46.0712,0.52,90,100,6.45,RU,1701066650
223,magalia,39.8121,-121.5783,3.75,44,0,3.66,US,1701066650
224,callao,-12.0667,-77.15,21.51,77,95,5.66,PE,1701066650
225,balabac,7.9868,117.0645,28.99,72,19,4.16,PH,1701066651
226,prado,-17.3411,-39.2208,23.78,84,100,2.96,BR,1701066651
227,isetskoye,56.4858,65.3226,1.23,96,99,5.17,RU,1701066574
228,cabo san lucas,22.8909,-109.9124,25.42,72,100,1.59,MX,1701066651
229,victoria,22.2855,114.1577,28.57,63,9,4.47,HK,1701066587
230,portland,45.5234,-122.6762,7.99,66,0,5.36,US,1701066241
231,dongning,44.0622,131.1207,-4.56,90,100,1.28,CN,1701066651
232,tazacorte,28.629,-17.9293,19.54,76,100,3.13,ES,1701066651
233,ar rutbah,33.0381,40.2848,15.52,59,98,9.58,IQ,1701066651
234,huambo,-12.7761,15.7392,19.85,79,26,1.12,AO,1701066610
235,fuxin,42.0156,121.6589,-3.84,62,100,5.53,CN,1701066652
236,avarua,-21.2078,-159.775,24.03,78,100,6.69,CK,1701066652
237,leh,34.1667,77.5833,2.33,29,100,0.67,IN,1701066413
238,polyarnyy,69.1989,33.4478,-16.05,92,70,2.55,RU,1701066652
239,nabire,-3.3667,135.4833,25.42,88,100,0.77,ID,1701066652
240,kapoeta,4.7717,33.5903,29.72,46,78,4.31,SS,1701066652
241,karratha,-20.7377,116.8463,31.29,38,5,9.51,AU,1701066653
242,buka,40.8108,69.1986,18.32,20,100,1.18,UZ,1701066653
243,juneau,58.3019,-134.4197,8.0,95,100,7.72,US,1701066516
244,vila franca do campo,37.7167,-25.4333,18.23,99,100,5.81,PT,1701066653
245,albertina,-22.2008,-46.6158,17.15,93,88,2.24,BR,1701066653
246,le lavandou,43.137,6.366,8.75,61,0,3.09,FR,1701066607
247,winneba,5.3511,-0.6231,25.35,86,98,3.06,GH,1701066653
248,kerikeri,-35.2268,173.9474,18.84,69,25,0.45,NZ,1701066653
249,hithadhoo,-0.6,73.0833,28.15,74,80,3.12,MV,1701066654
250,st. john's,47.5649,-52.7093,1.75,87,100,2.57,CA,1701066654
251,laascaanood,8.4774,47.3597,26.21,41,5,5.52,SO,1701066654
252,hengchun,22.0042,120.7439,25.26,68,81,4.57,TW,1701066654
253,chipinge,-20.1883,32.6236,29.94,23,8,2.7,ZW,1701066654
254,esperanza,19.5847,-70.9849,25.32,95,9,3.05,DO,1701066654
255,aasiaat,68.7098,-52.8699,-6.71,97,100,3.97,GL,1701066654
256,atafu village,-8.5421,-172.5159,29.68,77,100,7.47,TK,1701066655
257,ulladulla,-35.35,150.4667,22.65,85,100,3.32,AU,1701066655
258,la palma,33.8464,-118.0467,17.15,27,0,3.6,US,1701066655
259,birobidzhan,48.8,132.95,-12.88,81,31,1.27,RU,1701066362
260,bezhetsk,57.7851,36.6965,-4.43,94,100,9.34,RU,1701066655
261,velikiye luki,56.34,30.5452,-5.99,88,100,7.04,RU,1701066622
262,san patricio,28.017,-97.5169,12.13,44,100,4.72,US,1701066655
263,luba,3.4568,8.5547,24.94,86,91,1.39,GQ,1701066655
264,papao,-17.75,-149.55,25.82,84,100,10.78,PF,1701066656
265,cambria,35.5641,-121.0808,14.99,47,99,2.68,US,1701066656
266,happy valley-goose bay,53.3168,-60.3315,-6.83,86,20,2.57,CA,1701066657
267,ust-nera,64.5667,143.2,-23.41,95,99,3.28,RU,1701066598
268,puerto aysen,-45.4,-72.7,9.11,76,100,0.35,CL,1701066657
269,bucerias,20.75,-105.3333,24.43,74,100,1.87,MX,1701066657
270,linqiong,30.4159,103.4609,18.9,66,72,1.74,CN,1701066657
271,nishinoomote,30.7333,131.0,19.31,68,20,8.23,JP,1701066657
272,swakopmund,-22.6833,14.5333,14.99,89,63,3.13,NA,1701066618
273,vyazemskiy,47.5378,134.7525,-16.71,98,78,0.6,RU,1701066657
274,lensk,60.7253,114.9278,-15.63,94,100,4.37,RU,1701066658
275,punta arenas,-53.15,-70.9167,3.06,81,0,2.06,CL,1701066658
276,severo-yeniseyskiy,60.3725,93.0408,-19.22,91,5,0.93,RU,1701066658
277,tsiombe,-25.3,45.4833,35.4,30,0,0.87,MG,1701066658
278,sibiti,-3.6819,13.3499,22.42,96,99,1.46,CG,1701066658
279,yemva,62.59,50.8594,-6.24,95,100,3.31,RU,1701066658
280,la passe,45.5549,-0.8967,5.13,87,100,4.37,FR,1701066658
281,pontiac,42.6389,-83.2911,1.08,93,100,4.63,US,1701066659
282,bata,1.8639,9.7658,26.01,85,100,0.21,GQ,1701066659
283,antonio enes,-16.2325,39.9086,30.62,62,18,3.64,MZ,1701066659
284,mount pearl,47.5166,-52.7813,1.29,88,100,2.57,CA,1701066659
285,belmonte,-15.8631,-38.8828,23.72,91,87,1.45,BR,1701066659
286,ust-tsilma,65.441,52.1498,-18.62,98,100,0.93,RU,1701066659
287,emerald,-23.5333,148.1667,24.08,82,100,3.42,AU,1701066659
288,harstad,68.799,16.5293,-1.58,90,43,7.6,NO,1701066580
289,tocopilla,-22.092,-70.1979,17.93,73,22,1.19,CL,1701066659
290,lluta,-16.0147,-72.0142,11.75,51,100,0.74,PE,1701066660
291,kachug,53.9606,105.8817,-14.5,72,43,0.76,RU,1701066660
292,becancour,46.3334,-72.4324,1.96,95,100,3.6,CA,1701066660
293,ust'-ilimsk,58.0006,102.6619,-17.65,82,99,0.45,RU,1701066517
294,cozumel,20.5083,-86.9458,23.86,95,4,2.14,MX,1701066660
295,long beach,33.767,-118.1892,17.29,32,0,3.09,US,1701066660
296,sur,22.5667,59.5289,26.71,44,0,2.71,OM,1701066660
297,carnarvon,-24.8667,113.6333,23.99,61,100,6.39,AU,1701066661
298,norilsk,69.3535,88.2027,-23.83,96,23,2.51,RU,1701066421
299,turpan,42.9333,89.1667,10.43,22,6,0.97,CN,1701066613
300,udachny,66.4167,112.4,-21.09,99,100,2.85,RU,1701066661
301,manthani,18.65,79.6667,30.26,50,0,4.28,IN,1701066661
302,lerma,42.0261,-3.7598,3.31,88,94,2.62,ES,1701066662
303,rongelap,11.1635,166.8941,27.8,79,95,9.8,MH,1701066662
304,santiago del torno,-17.9833,-63.3833,23.1,91,100,2.48,BO,1701066662
305,argostolion,38.1811,20.489,8.04,76,20,2.06,GR,1701066662
306,port douglas,-16.4833,145.4667,25.45,80,100,1.4,AU,1701066662
307,daman,20.4167,72.85,25.53,77,40,2.37,IN,1701066662
308,saint-pierre,-21.3393,55.4781,28.65,61,100,4.12,RE,1701066662
309,san luis de la loma,17.2706,-100.8939,25.72,78,100,2.06,MX,1701066663
310,tlahualilo de zaragoza,26.1167,-103.45,13.99,71,100,3.16,MX,1701066663
311,port macquarie,-31.4333,152.9167,25.5,79,92,0.72,AU,1701066663
312,ghat,24.9647,10.1728,16.18,27,3,1.89,LY,1701066663
313,concepcion,-36.827,-73.0498,12.89,94,100,4.63,CL,1701066663
314,inhapi,-9.2214,-37.7486,19.51,86,0,1.9,BR,1701066663
315,san mariano,7.5,126.0,28.36,79,45,1.01,PH,1701066663
316,kingston,17.997,-76.7936,26.53,78,20,2.06,JM,1701066664
317,borogontsy,62.6683,131.1683,-28.92,98,100,0.96,RU,1701066664
318,nova vicosa,-17.8919,-39.3719,24.5,75,94,3.2,BR,1701066664
319,lautoka,-17.6167,177.4667,27.92,78,40,5.66,FJ,1701066664
320,the pas,53.8251,-101.2541,-13.99,72,100,6.17,CA,1701066664
321,usinsk,65.9939,57.5281,-18.23,94,100,3.05,RU,1701066621
322,kasongo-lunda,-6.4667,16.8167,22.29,96,100,0.36,CD,1701066664
323,taghazout,30.5426,-9.7112,13.43,68,4,0.6,MA,1701066664
324,coahuayana de hidalgo,18.7,-103.6583,23.48,77,62,2.02,MX,1701066665
325,yinchuan,38.4681,106.2731,6.93,25,0,1.7,CN,1701066665
326,nantucket,41.2835,-70.0995,11.08,90,100,12.86,US,1701066665
327,taroa,8.7058,171.2275,27.95,80,93,9.33,MH,1701066665
328,malanville,11.8685,3.3899,26.7,66,99,1.12,BJ,1701066665
329,pierre,44.3683,-100.351,-6.75,68,75,3.58,US,1701066665
330,qui nhon,13.7667,109.2333,25.4,77,99,9.26,VN,1701066666
331,puerto real,36.5282,-6.1901,12.09,87,75,1.03,ES,1701066666
332,malaya vishera,58.8454,32.2222,-8.02,85,100,5.19,RU,1701066666
333,plettenberg bay,-34.0527,23.3716,23.19,59,40,2.44,ZA,1701066666
334,el porvenir,13.7617,-87.3458,24.63,80,5,3.0,HN,1701066666
335,kasungu,-13.0333,33.4833,29.63,34,100,3.65,MW,1701066666
336,cide,41.8921,33.0044,3.54,91,100,7.43,TR,1701066666
337,mount gambier,-37.8333,140.7667,14.84,62,61,5.47,AU,1701066666
338,holualoa,19.6228,-155.9522,22.91,94,20,2.57,US,1701066667
339,biltine,14.5333,20.9167,30.49,17,37,9.01,TD,1701066667
340,korla,41.7597,86.1469,9.01,32,8,0.73,CN,1701066628
341,bichura,50.5881,107.6022,-10.87,70,37,3.08,RU,1701066667
342,paraiso,9.8383,-83.8656,19.48,96,100,1.71,CR,1701066667
343,agadez,19.75,10.25,19.38,21,100,2.64,NE,1701066667
344,bratsk,56.1325,101.6142,-16.73,73,81,1.48,RU,1701066600
345,manzanillo,20.3433,-77.1167,23.17,86,0,0.54,CU,1701066668
346,frutal,-20.0247,-48.9406,22.51,86,92,2.61,BR,1701066432
347,acajutla,13.5928,-89.8275,26.34,75,3,2.71,SV,1701066668
348,souillac,-20.5167,57.5167,28.21,69,40,5.14,MU,1701066668
349,zhezqazghan,47.7833,67.7667,2.32,75,0,6.0,KZ,1701066668
350,palapye,-22.546,27.1251,31.08,25,0,6.38,BW,1701066668
351,francistown,-21.17,27.5079,31.02,23,0,6.31,BW,1701066659
352,castillos,-34.1667,-53.8333,15.31,96,8,2.45,UY,1701066668
353,el granada,37.5027,-122.4694,12.66,58,0,0.45,US,1701066668
354,colonia,50.9333,6.95,4.6,84,20,4.63,DE,1701066383
355,tamanrasset,22.785,5.5228,10.95,24,0,1.03,DZ,1701066669
356,san matias,-16.3667,-58.4,22.35,94,54,1.35,BO,1701066669
357,baukau,51.5526,7.2042,4.42,94,100,2.24,DE,1701066669
358,gizo,-8.103,156.8419,28.66,73,100,0.44,SB,1701066669
359,walvis bay,-22.9575,14.5053,15.05,75,53,1.93,NA,1701066669
360,al ghayzah,16.2079,52.176,27.56,55,5,0.16,YE,1701066669
361,kangding,30.0513,101.9603,14.6,21,5,1.48,CN,1701066670
362,santo antonio,-6.3106,-35.4789,23.18,76,37,3.51,BR,1701066670
363,flying fish cove,-10.4217,105.6791,28.82,61,40,4.63,CX,1701066670
364,vernon,50.2581,-119.2691,3.2,86,100,0.51,CA,1701066670
365,byron bay,-28.65,153.6167,24.68,74,96,5.82,AU,1701066670
366,isabela,6.7085,121.9711,32.03,73,52,0.94,PH,1701066671
367,bangar,16.8936,120.4243,29.68,70,78,2.35,PH,1701066671
368,iskateley,67.6803,53.1512,-23.72,100,45,2.45,RU,1701066671
369,pariaman,-0.619,100.12,30.03,70,90,3.63,ID,1701066671
370,okhotsk,59.3833,143.3,-16.28,83,99,6.71,RU,1701066671
371,caleta de carquin,-11.0925,-77.6267,19.03,85,82,4.46,PE,1701066671
372,gamboula,4.1178,15.1393,22.55,87,100,0.61,CF,1701066671
373,sitangkai,4.6628,119.3928,27.91,72,100,0.8,PH,1701066672
374,thunder bay,48.4001,-89.3168,-10.01,57,20,7.72,CA,1701066672
375,tanjung pinang,0.9167,104.45,28.02,81,100,3.3,ID,1701066672
376,oranjestad,12.524,-70.027,27.97,78,20,6.69,AW,1701066672
377,illizi,26.4833,8.4667,8.89,24,6,1.12,DZ,1701066672
378,remire-montjoly,4.9167,-52.2667,25.02,100,75,0.0,GF,1701066672
379,ivins,37.1686,-113.6794,3.31,63,0,0.89,US,1701066673
380,college,64.8569,-147.8028,-5.31,86,100,2.06,US,1701066673
381,mohr,54.3528,9.7167,2.08,94,75,4.63,DE,1701066673
382,elverum,60.8819,11.5623,-10.8,97,99,1.6,NO,1701066673
383,odda,60.0691,6.5457,-6.25,85,42,3.83,NO,1701066673
384,bikenibeu village,1.3673,173.1241,28.98,84,75,1.03,KI,1701066673
385,fomboni,-12.28,43.7425,27.98,73,69,1.48,KM,1701066673
386,salalah,17.0151,54.0924,30.05,39,0,1.54,OM,1701066578
387,mejit,10.2753,170.8646,27.62,80,100,9.43,MH,1701066674
388,sosua,19.7667,-70.5167,25.99,100,20,0.0,DO,1701066674
389,mogocha,53.7333,119.7667,-17.68,80,15,0.78,RU,1701066674
390,kailua-kona,19.6406,-155.9956,24.98,94,20,2.57,US,1701066674
391,kabinda,-6.1333,24.4833,21.57,92,100,1.71,CD,1701066674
392,woolgoolga,-30.1106,153.2007,27.93,76,95,1.64,AU,1701066674
393,bafia,4.75,11.2333,22.67,89,100,0.36,CM,1701066674
394,weno,7.4515,151.8468,30.97,79,75,2.06,FM,1701066675
395,abepura,-2.6333,140.5833,28.45,74,40,1.03,ID,1701066675
396,sheridan,44.8333,-106.9173,0.21,62,0,6.17,US,1701066675
397,laguna,38.421,-121.4238,9.49,70,0,1.54,US,1701066675
398,beloyarskiy,63.7119,66.6722,-13.33,93,100,1.79,RU,1701066675
399,la ronge,55.1001,-105.2842,-12.86,72,100,0.51,CA,1701066559
400,mammoth lakes,37.6485,-118.9721,-6.48,48,0,0.0,US,1701066675
401,shenjiamen,29.9576,122.298,15.73,66,0,5.43,CN,1701066676
402,cabedelo,-6.9811,-34.8339,24.37,81,68,4.74,BR,1701066676
403,choibalsan,48.0667,114.5,-15.62,84,12,4.48,MN,1701066676
404,stawell,-37.05,142.7667,21.92,39,3,5.77,AU,1701066676
405,mali,12.079,-12.2982,14.75,68,3,0.87,GN,1701066676
406,carbonear,47.7332,-53.2148,2.01,93,94,2.67,CA,1701066677
407,mugumu,-1.85,34.7,21.79,69,98,1.83,TZ,1701066677
408,yorkton,51.2167,-102.4677,-12.09,72,100,4.63,CA,1701066677
409,midvagur,62.0511,-7.1939,2.46,80,75,0.51,FO,1701066677
410,la chaux-de-fonds,47.0999,6.8259,-0.19,100,0,1.03,CH,1701066387
411,paradip garh,20.3167,86.6167,26.72,50,99,2.33,IN,1701066677
412,ban karon,7.8477,98.2985,28.21,75,100,7.29,TH,1701066677
413,saint joseph,39.7686,-94.8466,-5.79,88,0,0.0,US,1701066605
414,manicore,-5.8092,-61.3003,22.57,91,100,0.95,BR,1701066677
415,el quebrachal,-25.2833,-64.0667,22.1,76,27,0.95,AR,1701066678
416,adrar,20.5022,-10.0711,14.74,23,0,4.38,MR,1701066678
417,marion,39.7684,-86.1555,0.32,82,100,8.75,US,1701066678
418,kruisfontein,-34.0033,24.7314,25.26,44,5,4.63,ZA,1701066678
419,toyooka,35.5333,134.8333,14.03,67,40,3.6,JP,1701066678
420,mahina,-17.5065,-149.489,25.87,73,40,1.54,PF,1701066678
421,zadar,44.1197,15.2422,4.34,65,20,4.12,HR,1701066545
422,as sulayyil,20.4607,45.5779,24.14,30,91,2.95,SA,1701066678
423,kasongo,-4.45,26.6667,22.27,88,100,1.25,CD,1701066679
424,masindi port,1.6961,32.0861,22.07,84,100,3.05,UG,1701066679
425,siwa oasis,29.2041,25.5195,16.7,42,0,3.89,EG,1701066679
426,villa la venta,18.1,-94.05,23.56,93,52,3.01,MX,1701066679
427,ceres,37.5949,-120.9577,8.36,93,0,1.54,US,1701066567
428,lyskovo,56.0328,45.0422,1.03,88,100,6.7,RU,1701066679
429,moroni,-11.7022,43.2551,28.37,73,21,2.5,KM,1701066679
430,tura,25.5198,90.2201,26.69,41,26,1.37,IN,1701066680
431,north battleford,52.7834,-108.2847,-3.66,93,100,3.09,CA,1701066680
432,dunoon,55.947,-4.923,3.62,97,48,0.89,GB,1701066680
433,santa cruz,-17.8,-63.1667,23.7,94,75,4.63,BO,1701066680
434,bagudo,11.4033,4.2296,25.34,72,99,1.18,NG,1701066680
435,tadine,-21.55,167.8833,23.08,70,5,4.56,NC,1701066680
436,orchard homes,46.8633,-114.0484,-4.82,85,0,1.34,US,1701066680
437,ixtapa,20.7,-105.2,24.01,74,100,1.43,MX,1701066681
438,molde,62.7375,7.1591,-3.09,74,0,7.2,NO,1701066681
439,pordic,48.5705,-2.8178,9.71,95,100,3.13,FR,1701066681
440,tokar,18.4254,37.729,30.66,55,96,7.36,SD,1701066681
441,rabo de peixe,37.8,-25.5833,17.73,99,75,10.29,PT,1701066681
442,abdulino,53.7,53.6667,1.86,72,7,7.63,RU,1701066681
443,vylkove,45.4021,29.586,-0.93,79,100,6.8,UA,1701066681
444,plastun,44.7561,136.2939,-3.57,59,47,0.33,RU,1701066681
445,greymouth,-42.4667,171.2,14.43,78,100,1.95,NZ,1701066477
446,yaren,-0.5472,166.916,29.21,70,97,1.86,NR,1701066682
447,vryburg,-26.9566,24.7284,33.41,14,5,3.95,ZA,1701066682
448,daday,41.4787,33.4667,-0.74,66,7,5.16,TR,1701066682
449,kwang binh,17.4833,106.6,24.92,70,69,6.39,VN,1701066682
450,bandundu,-3.3167,17.3667,26.58,78,58,1.12,CD,1701066682
451,malindi,-3.2175,40.1191,28.27,74,94,3.15,KE,1701066683
452,douglas,41.3,-96.167,-4.67,83,0,1.54,US,1701066683
453,peace river,56.2501,-117.286,-1.83,93,100,2.57,CA,1701066683
454,mana,5.6592,-53.7767,25.27,91,83,3.82,GF,1701066683
455,malpe,13.35,74.7167,32.61,57,28,2.28,IN,1701066683
456,minas de marcona,-15.2119,-75.1103,14.77,85,30,3.86,PE,1701066683
457,sampit,-2.5333,112.95,31.45,55,44,1.33,ID,1701066683
458,yakeshi,49.2833,120.7333,-18.72,96,99,3.62,CN,1701066684
459,zaozersk,69.4005,32.4476,-15.88,87,37,1.24,RU,1701066684
460,namibe,-15.1961,12.1522,23.57,78,99,1.63,AO,1701066684
461,caibarien,22.5206,-79.4669,22.62,83,27,2.48,CU,1701066684
462,port huron,42.9709,-82.4249,1.23,90,100,3.6,US,1701066684
463,meldola,44.1283,12.0625,9.06,78,75,2.24,IT,1701066684
464,hadibu,12.65,54.0333,27.71,62,100,7.28,YE,1701066684
465,haiku-pauwela,20.9219,-156.3051,23.36,75,20,6.17,US,1701066685
466,villa gesell,-37.2639,-56.973,16.52,89,7,4.03,AR,1701066685
467,tash-kumyr,41.3461,72.2171,18.36,20,58,1.17,KG,1701066685
468,aripuana,-9.1667,-60.6333,22.16,87,11,0.83,BR,1701066685
469,vytegra,61.0064,36.4481,-9.8,92,100,2.24,RU,1701066685
470,tangjin,36.8944,126.6297,8.9,66,79,7.95,KR,1701066686
471,dunedin,-45.8742,170.5036,12.11,83,100,2.68,NZ,1701066686
472,barabai,-2.5833,115.3833,27.88,86,98,1.0,ID,1701066279
473,ballina,-28.8667,153.5667,24.75,74,89,6.15,AU,1701066686
474,quepos,9.4236,-84.1652,24.73,86,43,1.78,CR,1701066686
475,cox's bazar,21.4532,91.9798,27.75,60,98,3.56,BD,1701066687
476,menomonie,44.8755,-91.9193,-6.98,58,0,4.63,US,1701066687
477,aver-o-mar,41.4078,-8.7812,12.4,94,75,2.57,PT,1701066687
478,sinabang,2.4803,96.3801,26.81,81,100,3.37,ID,1701066687
479,daru,-9.0763,143.2092,28.28,76,100,5.16,PG,1701066687
480,acapulco de juarez,16.8634,-99.8901,26.9,83,75,2.57,MX,1701066687
481,margate,51.3813,1.3862,9.39,97,100,3.13,GB,1701066688
482,vieux-habitants,16.0589,-61.7659,22.76,68,0,3.11,GP,1701066688
483,mamboma,8.0833,-11.6833,21.8,99,28,0.64,SL,1701066688
484,sunne,59.8376,13.143,-2.77,84,85,3.27,SE,1701066688
485,castro alves,-12.7656,-39.4283,19.66,94,4,1.1,BR,1701066688
486,hasaki,35.7333,140.8333,17.38,68,0,4.9,JP,1701066688
487,upata,8.0086,-62.3989,21.77,98,11,1.21,VE,1701066688
488,igarka,67.4667,86.5833,-26.17,97,78,3.07,RU,1701066689
489,colby,39.3958,-101.0524,-4.98,79,0,4.63,US,1701066689
490,punta de bombon,-17.1717,-71.7931,19.09,84,100,1.52,PE,1701066689
491,arno,60.1167,18.6333,-4.01,73,100,7.24,SE,1701066689
492,waingapu,-9.6567,120.2641,30.15,64,59,3.04,ID,1701066689
493,yusufeli,40.8204,41.5443,4.81,97,100,4.14,TR,1701066537
494,sarandi del yi,-33.35,-55.6333,14.81,96,0,3.6,UY,1701066690
495,bertoua,4.5833,13.6833,23.02,83,100,0.25,CM,1701066690
496,shajiang,26.7825,119.9669,20.2,65,12,2.54,CN,1701066690
497,calvinia,-31.4707,19.776,23.9,31,0,2.06,ZA,1701066690
498,manadhoo,5.7667,73.3833,28.05,77,32,5.46,MV,1701066691
499,kununurra,-15.7667,128.7333,37.99,34,75,3.6,AU,1701066691
500,kupang,-10.1667,123.5833,29.32,89,75,3.6,ID,1701066691
501,guanica,17.9716,-66.908,25.02,55,7,3.31,PR,1701066691
502,whakatane,-37.9585,176.9854,18.76,73,100,2.87,NZ,1701066691
503,sechura,-5.5569,-80.8222,19.96,78,14,5.32,PE,1701066691
504,viana do castelo,41.6932,-8.8329,12.7,90,100,2.8,PT,1701066692
505,yarmouth,41.7057,-70.2286,11.03,92,100,7.2,US,1701066692
506,porto velho,-8.7619,-63.9039,24.03,88,20,0.0,BR,1701066692
507,kouango,4.9934,19.9619,25.89,78,99,1.76,CF,1701066692
508,yoloten,37.2989,62.3597,24.29,24,0,11.86,TM,1701066692
509,lepsy,46.235,78.9456,10.01,48,89,6.6,KZ,1701066693
510,goure,13.9835,10.2704,26.42,21,72,5.11,NE,1701066693
511,arraial do cabo,-22.9661,-42.0278,22.65,81,97,7.37,BR,1701066693
512,ocos,14.5094,-92.1933,26.06,81,7,4.38,GT,1701066693
513,caconda,-13.7333,15.0667,20.48,75,34,1.73,AO,1701066693
514,brainerd,46.358,-94.2008,-11.03,72,20,5.14,US,1701066693
515,ghormach,35.7306,63.7826,21.11,25,0,1.7,AF,1701066694
516,am timan,11.0297,20.2827,30.94,26,59,1.57,TD,1701066694
517,shakawe,-18.3667,21.85,26.35,48,54,1.66,BW,1701066577
518,trenggalek,-8.05,111.7167,29.97,56,100,2.78,ID,1701066694
519,xiongzhou,25.1167,114.3,23.79,52,1,2.85,CN,1701066694
520,guaraciaba do norte,-4.1669,-40.7475,18.53,87,4,1.73,BR,1701066694
521,keita,14.7551,5.7749,27.42,37,100,2.0,NE,1701066694
522,libog,13.2349,123.7778,28.37,76,100,3.12,PH,1701066694
523,shimoda,34.6667,138.95,16.2,66,27,6.06,JP,1701066694
524,simanggang,1.2472,111.4528,32.99,66,40,0.51,MY,1701066695
525,kaya,13.0917,-1.0844,24.91,68,100,2.25,BF,1701066695
526,nagtipunan,16.2167,121.6,29.32,66,89,1.49,PH,1701066695
527,saint croix,17.7397,-64.7388,24.42,80,0,2.06,VI,1701066695
528,tamiahua,21.2667,-97.45,21.68,88,100,8.19,MX,1701066695
529,banes,20.9625,-75.7186,23.83,92,1,0.98,CU,1701066695
530,hannibal,39.7084,-91.3585,-1.49,69,0,4.12,US,1701066696
531,nadi,-17.8,177.4167,28.0,78,40,5.66,FJ,1701066696
532,vila velha,-20.3297,-40.2925,21.97,98,100,2.06,BR,1701066614
533,armacao de buzios,-22.7469,-41.8817,22.03,82,100,5.91,BR,1701066696
534,zagora,30.3484,-5.8365,10.38,28,0,0.92,MA,1701066696
535,keflavik,64.0049,-22.5624,6.24,100,100,8.75,IS,1701066696
536,north shore,-36.8,174.75,18.32,69,99,2.68,NZ,1701066696
537,betio village,1.358,172.9211,29.02,67,69,1.88,KI,1701066696
538,san rafael del sur,11.8485,-86.4384,25.3,78,53,5.83,NI,1701066697
539,burang,30.25,81.1667,1.64,35,100,3.33,CN,1701066697
540,malpica,43.3228,-8.8105,14.57,80,100,2.72,ES,1701066697
541,puerto armuelles,8.2833,-82.8667,26.16,82,59,3.13,PA,1701066697
542,bocas del toro,9.3333,-82.25,23.89,82,75,3.13,PA,1701066697
543,mangrol,21.1167,70.1167,26.39,57,100,2.27,IN,1701066698
544,hiratacho,35.4333,132.8167,18.01,52,20,7.2,JP,1701066698
545,garango,11.8,-0.5506,25.08,74,100,2.15,BF,1701066698
546,coquimbo,-29.9533,-71.3436,13.85,94,100,2.06,CL,1701066644
547,beichengqu,40.4394,113.1536,-2.4,40,100,9.83,CN,1701066698
548,da nang,16.0678,108.2208,26.99,61,20,6.69,VN,1701066698
549,kapshagay,43.8833,77.0833,13.31,36,17,2.88,KZ,1701066699
550,alghero,40.5589,8.3181,9.05,93,40,0.51,IT,1701066407
551,gillette,44.2911,-105.5022,-4.49,76,0,7.72,US,1701066699
552,trairi,-3.2778,-39.2689,25.96,72,1,4.31,BR,1701066699
553,mizhhirya,48.5246,23.5056,-4.48,86,100,2.06,UA,1701066699
554,san andres,12.5847,-81.7006,29.01,84,40,5.66,CO,1701066699
555,eureka,40.8021,-124.1637,4.23,98,0,2.41,US,1701066699
556,aykhal,66.0,111.5,-21.03,98,100,3.95,RU,1701066699
557,san lawrenz,36.0553,14.204,14.92,75,85,5.92,MT,1701066700
558,shagonar,51.5333,92.8,-7.84,90,100,0.53,RU,1701066700
559,veraval,20.9,70.3667,25.97,61,90,2.36,IN,1701066700
560,xanthi,41.1414,24.8836,4.34,56,0,2.0,GR,1701066701
561,raton,36.9034,-104.4391,-4.81,79,0,3.6,US,1701066701
562,east london,-33.0153,27.9116,24.85,69,0,5.48,ZA,1701066701
563,shevchenko,48.5,35.0,-1.8,82,100,9.97,UA,1701066701
564,yerofey pavlovich,53.9667,121.9667,-16.06,56,19,1.61,RU,1701066701
565,parczew,51.6402,22.9006,-1.66,93,100,4.51,PL,1701066701
566,kodinsk,58.6881,99.1844,-16.42,80,11,1.15,RU,1701066701
567,darhan,49.4867,105.9228,-10.83,82,19,2.04,MN,1701066702
568,cockburn town,21.4612,-71.1419,26.75,75,55,7.47,TC,1701066702
569,gaspe,48.8334,-64.4819,-0.05,93,75,1.03,CA,1701066702
570,santa cruz del sur,20.7147,-77.9956,23.23,86,15,3.3,CU,1701066702
571,cedeira,43.6797,-8.0209,13.36,91,100,5.12,ES,1701066702
572,porto novo,6.4965,2.6036,23.9,84,92,1.02,BJ,1701066702
